[
    {
        "Award Date": "5/24/10",
        "Country": "Bangladesh",
        "Expiration Date": "",
        "FY14 Contribution": " $7,384,000 ",
        "Location (District or Municipality)": "Khulna, Narail, Bagerhat\n",
        "Location (Region)": "Khulna",
        "Notes": "FFP anticipates awarding new programs in FY15",
        "Office": "USAID/Food for Peace",
        "Partner": "ACDI",
        "Program Name": "Program for Strengthening Household Access to Resources (PROSHAR)",
        "Region": "ANE",
        "Type of Program": "Development",
        "country_coordinates": {
            "lat": 23.684994,
            "long": 90.356331,
            "raw": {
                "address_components": [
                    {
                        "long_name": "Bangladesh",
                        "short_name": "BD",
                        "types": [
                            "country",
                            "political"
                        ]
                    }
                ],
                "formatted_address": "Bangladesh",
                "geometry": {
                    "bounds": {
                        "northeast": {
                            "lat": 26.6342433,
                            "lng": 92.6801154
                        },
                        "southwest": {
                            "lat": 20.7543802,
                            "lng": 88.00858869999999
                        }
                    },
                    "location": {
                        "lat": 23.684994,
                        "lng": 90.356331
                    },
                    "location_type": "APPROXIMATE",
                    "viewport": {
                        "northeast": {
                            "lat": 26.6342433,
                            "lng": 92.6801154
                        },
                        "southwest": {
                            "lat": 20.7543802,
                            "lng": 88.00858869999999
                        }
                    }
                },
                "types": [
                    "country",
                    "political"
                ]
            }
        },
        "locations": [
            {
                "implementer": "ACDI",
                "lat": 22.816667,
                "location": "Khulna",
                "long": 89.55,
                "raw": {
                    "address_components": [
                        {
                            "long_name": "Khulna",
                            "short_name": "Khulna",
                            "types": [
                                "locality",
                                "political"
                            ]
                        },
                        {
                            "long_name": "Khulna",
                            "short_name": "Khulna",
                            "types": [
                                "administrative_area_level_2",
                                "political"
                            ]
                        },
                        {
                            "long_name": "Khulna Division",
                            "short_name": "Khulna Division",
                            "types": [
                                "administrative_area_level_1",
                                "political"
                            ]
                        },
                        {
                            "long_name": "Bangladesh",
                            "short_name": "BD",
                            "types": [
                                "country",
                                "political"
                            ]
                        }
                    ],
                    "formatted_address": "Khulna, Bangladesh",
                    "geometry": {
                        "bounds": {
                            "northeast": {
                                "lat": 22.933575,
                                "lng": 89.58234780000001
                            },
                            "southwest": {
                                "lat": 22.7570288,
                                "lng": 89.48265560000002
                            }
                        },
                        "location": {
                            "lat": 22.816667,
                            "lng": 89.55
                        },
                        "location_type": "APPROXIMATE",
                        "viewport": {
                            "northeast": {
                                "lat": 22.933575,
                                "lng": 89.58234780000001
                            },
                            "southwest": {
                                "lat": 22.7570288,
                                "lng": 89.48265560000002
                            }
                        }
                    },
                    "types": [
                        "locality",
                        "political"
                    ]
                }
            },
            {
                "implementer": "ACDI",
                "lat": 23.1656982,
                "location": "Narail",
                "long": 89.4990219,
                "raw": {
                    "address_components": [
                        {
                            "long_name": "Narail",
                            "short_name": "Narail",
                            "types": [
                                "locality",
                                "political"
                            ]
                        },
                        {
                            "long_name": "Narail",
                            "short_name": "Narail",
                            "types": [
                                "administrative_area_level_2",
                                "political"
                            ]
                        },
                        {
                            "long_name": "Khulna Division",
                            "short_name": "Khulna Division",
                            "types": [
                                "administrative_area_level_1",
                                "political"
                            ]
                        },
                        {
                            "long_name": "Bangladesh",
                            "short_name": "BD",
                            "types": [
                                "country",
                                "political"
                            ]
                        }
                    ],
                    "formatted_address": "Narail, Bangladesh",
                    "geometry": {
                        "bounds": {
                            "northeast": {
                                "lat": 23.1713741,
                                "lng": 89.5005511
                            },
                            "southwest": {
                                "lat": 23.1614313,
                                "lng": 89.49737549999999
                            }
                        },
                        "location": {
                            "lat": 23.1656982,
                            "lng": 89.4990219
                        },
                        "location_type": "APPROXIMATE",
                        "viewport": {
                            "northeast": {
                                "lat": 23.1713741,
                                "lng": 89.5005511
                            },
                            "southwest": {
                                "lat": 23.1614313,
                                "lng": 89.49737549999999
                            }
                        }
                    },
                    "types": [
                        "locality",
                        "political"
                    ]
                }
            },
            {
                "implementer": "ACDI",
                "lat": 22.6554516,
                "location": "Bagerhat\n",
                "long": 89.7661527,
                "raw": {
                    "address_components": [
                        {
                            "long_name": "Bagerhat",
                            "short_name": "Bagerhat",
                            "types": [
                                "locality",
                                "political"
                            ]
                        },
                        {
                            "long_name": "Bagerhat",
                            "short_name": "Bagerhat",
                            "types": [
                                "administrative_area_level_2",
                                "political"
                            ]
                        },
                        {
                            "long_name": "Khulna Division",
                            "short_name": "Khulna Division",
                            "types": [
                                "administrative_area_level_1",
                                "political"
                            ]
                        },
                        {
                            "long_name": "Bangladesh",
                            "short_name": "BD",
                            "types": [
                                "country",
                                "political"
                            ]
                        }
                    ],
                    "formatted_address": "Bagerhat, Bangladesh",
                    "geometry": {
                        "bounds": {
                            "northeast": {
                                "lat": 22.6806484,
                                "lng": 89.8099278
                            },
                            "southwest": {
                                "lat": 22.635877,
                                "lng": 89.74100589999999
                            }
                        },
                        "location": {
                            "lat": 22.6554516,
                            "lng": 89.7661527
                        },
                        "location_type": "APPROXIMATE",
                        "viewport": {
                            "northeast": {
                                "lat": 22.6806484,
                                "lng": 89.8099278
                            },
                            "southwest": {
                                "lat": 22.635877,
                                "lng": 89.74100589999999
                            }
                        }
                    },
                    "types": [
                        "locality",
                        "political"
                    ]
                }
            }
        ]
    },
    {
        "Award Date": "2/17/04",
        "Country": "Bangladesh",
        "Expiration Date": "",
        "FY14 Contribution": " $18,475,000 ",
        "Location (District or Municipality)": "Mymensingh, Jamalpur, Sunamganj, Cox's Bazaar, Kurigram, Nilphamari, Rangpur, Dinajpur, Bogra, Sirajganj, Pabna",
        "Location (Region)": "Mymensing, Cox's Bazaar, Rangpur, Sirajganj",
        "Notes": "FFP anticipates awarding new programs in FY15",
        "Office": "USAID/Food for Peace",
        "Partner": "CARE",
        "Program Name": "Strengthening Households' Ability to Partner for New Opportunities (SHAPNO)",
        "Region": "ANE",
        "Type of Program": "Development",
        "country_coordinates": {
            "lat": 23.684994,
            "long": 90.356331,
            "raw": {
                "address_components": [
                    {
                        "long_name": "Bangladesh",
                        "short_name": "BD",
                        "types": [
                            "country",
                            "political"
                        ]
                    }
                ],
                "formatted_address": "Bangladesh",
                "geometry": {
                    "bounds": {
                        "northeast": {
                            "lat": 26.6342433,
                            "lng": 92.6801154
                        },
                        "southwest": {
                            "lat": 20.7543802,
                            "lng": 88.00858869999999
                        }
                    },
                    "location": {
                        "lat": 23.684994,
                        "lng": 90.356331
                    },
                    "location_type": "APPROXIMATE",
                    "viewport": {
                        "northeast": {
                            "lat": 26.6342433,
                            "lng": 92.6801154
                        },
                        "southwest": {
                            "lat": 20.7543802,
                            "lng": 88.00858869999999
                        }
                    }
                },
                "types": [
                    "country",
                    "political"
                ]
            }
        },
        "locations": [
            {
                "implementer": "CARE",
                "lat": 24.753889,
                "location": "Mymensingh",
                "long": 90.40305599999999,
                "raw": {
                    "address_components": [
                        {
                            "long_name": "Mymensingh",
                            "short_name": "Mymensingh",
                            "types": [
                                "locality",
                                "political"
                            ]
                        },
                        {
                            "long_name": "Mymensingh",
                            "short_name": "Mymensingh",
                            "types": [
                                "administrative_area_level_2",
                                "political"
                            ]
                        },
                        {
                            "long_name": "Dhaka Division",
                            "short_name": "Dhaka Division",
                            "types": [
                                "administrative_area_level_1",
                                "political"
                            ]
                        },
                        {
                            "long_name": "Bangladesh",
                            "short_name": "BD",
                            "types": [
                                "country",
                                "political"
                            ]
                        }
                    ],
                    "formatted_address": "Mymensingh, Bangladesh",
                    "geometry": {
                        "bounds": {
                            "northeast": {
                                "lat": 24.7827605,
                                "lng": 90.4485512
                            },
                            "southwest": {
                                "lat": 24.7142056,
                                "lng": 90.344696
                            }
                        },
                        "location": {
                            "lat": 24.753889,
                            "lng": 90.40305599999999
                        },
                        "location_type": "APPROXIMATE",
                        "viewport": {
                            "northeast": {
                                "lat": 24.7827605,
                                "lng": 90.4485512
                            },
                            "southwest": {
                                "lat": 24.7142056,
                                "lng": 90.344696
                            }
                        }
                    },
                    "types": [
                        "locality",
                        "political"
                    ]
                }
            },
            {
                "implementer": "CARE",
                "lat": 24.9249785,
                "location": "Jamalpur",
                "long": 89.9463408,
                "raw": {
                    "address_components": [
                        {
                            "long_name": "Jamalpur",
                            "short_name": "Jamalpur",
                            "types": [
                                "locality",
                                "political"
                            ]
                        },
                        {
                            "long_name": "Jamalpur",
                            "short_name": "Jamalpur",
                            "types": [
                                "administrative_area_level_2",
                                "political"
                            ]
                        },
                        {
                            "long_name": "Dhaka Division",
                            "short_name": "Dhaka Division",
                            "types": [
                                "administrative_area_level_1",
                                "political"
                            ]
                        },
                        {
                            "long_name": "Bangladesh",
                            "short_name": "BD",
                            "types": [
                                "country",
                                "political"
                            ]
                        }
                    ],
                    "formatted_address": "Jamalpur, Bangladesh",
                    "geometry": {
                        "bounds": {
                            "northeast": {
                                "lat": 24.9424057,
                                "lng": 89.9647237
                            },
                            "southwest": {
                                "lat": 24.9113495,
                                "lng": 89.9323654
                            }
                        },
                        "location": {
                            "lat": 24.9249785,
                            "lng": 89.9463408
                        },
                        "location_type": "APPROXIMATE",
                        "viewport": {
                            "northeast": {
                                "lat": 24.9424057,
                                "lng": 89.9647237
                            },
                            "southwest": {
                                "lat": 24.9113495,
                                "lng": 89.9323654
                            }
                        }
                    },
                    "types": [
                        "locality",
                        "political"
                    ]
                }
            },
            {
                "implementer": "CARE",
                "lat": 25.066667,
                "location": "Sunamganj",
                "long": 91.39999999999999,
                "raw": {
                    "address_components": [
                        {
                            "long_name": "Sunamganj",
                            "short_name": "Sunamganj",
                            "types": [
                                "locality",
                                "political"
                            ]
                        },
                        {
                            "long_name": "Sunamganj",
                            "short_name": "Sunamganj",
                            "types": [
                                "administrative_area_level_2",
                                "political"
                            ]
                        },
                        {
                            "long_name": "Sylhet",
                            "short_name": "Sylhet",
                            "types": [
                                "administrative_area_level_1",
                                "political"
                            ]
                        },
                        {
                            "long_name": "Bangladesh",
                            "short_name": "BD",
                            "types": [
                                "country",
                                "political"
                            ]
                        }
                    ],
                    "formatted_address": "Sunamganj, Bangladesh",
                    "geometry": {
                        "bounds": {
                            "northeast": {
                                "lat": 25.0796131,
                                "lng": 91.4242745
                            },
                            "southwest": {
                                "lat": 25.060177,
                                "lng": 91.3835908
                            }
                        },
                        "location": {
                            "lat": 25.066667,
                            "lng": 91.39999999999999
                        },
                        "location_type": "APPROXIMATE",
                        "viewport": {
                            "northeast": {
                                "lat": 25.0796131,
                                "lng": 91.4242745
                            },
                            "southwest": {
                                "lat": 25.060177,
                                "lng": 91.3835908
                            }
                        }
                    },
                    "types": [
                        "locality",
                        "political"
                    ]
                }
            },
            {
                "implementer": "CARE",
                "lat": 21.4394636,
                "location": "Cox's Bazaar",
                "long": 92.0077316,
                "raw": {
                    "address_components": [
                        {
                            "long_name": "Cox's Bazar",
                            "short_name": "Cox's Bazar",
                            "types": [
                                "locality",
                                "political"
                            ]
                        },
                        {
                            "long_name": "Cox's Bazar",
                            "short_name": "Cox's Bazar",
                            "types": [
                                "administrative_area_level_2",
                                "political"
                            ]
                        },
                        {
                            "long_name": "Chittagong Division",
                            "short_name": "Chittagong Division",
                            "types": [
                                "administrative_area_level_1",
                                "political"
                            ]
                        },
                        {
                            "long_name": "Bangladesh",
                            "short_name": "BD",
                            "types": [
                                "country",
                                "political"
                            ]
                        }
                    ],
                    "formatted_address": "Cox's Bazar, Bangladesh",
                    "geometry": {
                        "bounds": {
                            "northeast": {
                                "lat": 21.5139277,
                                "lng": 92.05770489999999
                            },
                            "southwest": {
                                "lat": 21.3878686,
                                "lng": 91.9480991
                            }
                        },
                        "location": {
                            "lat": 21.4394636,
                            "lng": 92.0077316
                        },
                        "location_type": "APPROXIMATE",
                        "viewport": {
                            "northeast": {
                                "lat": 21.5139277,
                                "lng": 92.05770489999999
                            },
                            "southwest": {
                                "lat": 21.3878686,
                                "lng": 91.9480991
                            }
                        }
                    },
                    "types": [
                        "locality",
                        "political"
                    ]
                }
            },
            {
                "implementer": "CARE",
                "lat": 25.810346,
                "location": "Kurigram",
                "long": 89.6486979,
                "raw": {
                    "address_components": [
                        {
                            "long_name": "Kurigram",
                            "short_name": "Kurigram",
                            "types": [
                                "locality",
                                "political"
                            ]
                        },
                        {
                            "long_name": "Kurigram",
                            "short_name": "Kurigram",
                            "types": [
                                "administrative_area_level_2",
                                "political"
                            ]
                        },
                        {
                            "long_name": "Rangpur Division",
                            "short_name": "Rangpur Division",
                            "types": [
                                "administrative_area_level_1",
                                "political"
                            ]
                        },
                        {
                            "long_name": "Bangladesh",
                            "short_name": "BD",
                            "types": [
                                "country",
                                "political"
                            ]
                        }
                    ],
                    "formatted_address": "Kurigram, Bangladesh",
                    "geometry": {
                        "bounds": {
                            "northeast": {
                                "lat": 25.8264708,
                                "lng": 89.6734141
                            },
                            "southwest": {
                                "lat": 25.7952159,
                                "lng": 89.62024199999999
                            }
                        },
                        "location": {
                            "lat": 25.810346,
                            "lng": 89.6486979
                        },
                        "location_type": "APPROXIMATE",
                        "viewport": {
                            "northeast": {
                                "lat": 25.8264708,
                                "lng": 89.6734141
                            },
                            "southwest": {
                                "lat": 25.7952159,
                                "lng": 89.62024199999999
                            }
                        }
                    },
                    "types": [
                        "locality",
                        "political"
                    ]
                }
            },
            {
                "implementer": "CARE",
                "lat": 25.941667,
                "location": "Nilphamari",
                "long": 88.846667,
                "raw": {
                    "address_components": [
                        {
                            "long_name": "Nilphamari",
                            "short_name": "Nilphamari",
                            "types": [
                                "locality",
                                "political"
                            ]
                        },
                        {
                            "long_name": "Nilphamari",
                            "short_name": "Nilphamari",
                            "types": [
                                "administrative_area_level_2",
                                "political"
                            ]
                        },
                        {
                            "long_name": "Rangpur Division",
                            "short_name": "Rangpur Division",
                            "types": [
                                "administrative_area_level_1",
                                "political"
                            ]
                        },
                        {
                            "long_name": "Bangladesh",
                            "short_name": "BD",
                            "types": [
                                "country",
                                "political"
                            ]
                        }
                    ],
                    "formatted_address": "Nilphamari, Bangladesh",
                    "geometry": {
                        "bounds": {
                            "northeast": {
                                "lat": 25.9701987,
                                "lng": 88.87939449999999
                            },
                            "southwest": {
                                "lat": 25.9087217,
                                "lng": 88.8186264
                            }
                        },
                        "location": {
                            "lat": 25.941667,
                            "lng": 88.846667
                        },
                        "location_type": "APPROXIMATE",
                        "viewport": {
                            "northeast": {
                                "lat": 25.9701987,
                                "lng": 88.87939449999999
                            },
                            "southwest": {
                                "lat": 25.9087217,
                                "lng": 88.8186264
                            }
                        }
                    },
                    "types": [
                        "locality",
                        "political"
                    ]
                }
            },
            {
                "implementer": "CARE",
                "lat": 25.7438916,
                "location": "Rangpur",
                "long": 89.275227,
                "raw": {
                    "address_components": [
                        {
                            "long_name": "Rangpur",
                            "short_name": "Rangpur",
                            "types": [
                                "locality",
                                "political"
                            ]
                        },
                        {
                            "long_name": "Rangpur",
                            "short_name": "Rangpur",
                            "types": [
                                "administrative_area_level_2",
                                "political"
                            ]
                        },
                        {
                            "long_name": "Rangpur Division",
                            "short_name": "Rangpur Division",
                            "types": [
                                "administrative_area_level_1",
                                "political"
                            ]
                        },
                        {
                            "long_name": "Bangladesh",
                            "short_name": "BD",
                            "types": [
                                "country",
                                "political"
                            ]
                        }
                    ],
                    "formatted_address": "Rangpur, Bangladesh",
                    "geometry": {
                        "bounds": {
                            "northeast": {
                                "lat": 25.7896132,
                                "lng": 89.3164443
                            },
                            "southwest": {
                                "lat": 25.7099088,
                                "lng": 89.2090702
                            }
                        },
                        "location": {
                            "lat": 25.7438916,
                            "lng": 89.275227
                        },
                        "location_type": "APPROXIMATE",
                        "viewport": {
                            "northeast": {
                                "lat": 25.7896132,
                                "lng": 89.3164443
                            },
                            "southwest": {
                                "lat": 25.7099088,
                                "lng": 89.2090702
                            }
                        }
                    },
                    "types": [
                        "locality",
                        "political"
                    ]
                }
            },
            {
                "implementer": "CARE",
                "lat": 25.6210504,
                "location": "Dinajpur",
                "long": 88.64343079999999,
                "raw": {
                    "address_components": [
                        {
                            "long_name": "Dinajpur",
                            "short_name": "Dinajpur",
                            "types": [
                                "locality",
                                "political"
                            ]
                        },
                        {
                            "long_name": "Dinajpur",
                            "short_name": "Dinajpur",
                            "types": [
                                "administrative_area_level_2",
                                "political"
                            ]
                        },
                        {
                            "long_name": "Rangpur Division",
                            "short_name": "Rangpur Division",
                            "types": [
                                "administrative_area_level_1",
                                "political"
                            ]
                        },
                        {
                            "long_name": "Bangladesh",
                            "short_name": "BD",
                            "types": [
                                "country",
                                "political"
                            ]
                        }
                    ],
                    "formatted_address": "Dinajpur, Bangladesh",
                    "geometry": {
                        "bounds": {
                            "northeast": {
                                "lat": 25.6516755,
                                "lng": 88.6652376
                            },
                            "southwest": {
                                "lat": 25.5887429,
                                "lng": 88.6196243
                            }
                        },
                        "location": {
                            "lat": 25.6210504,
                            "lng": 88.64343079999999
                        },
                        "location_type": "APPROXIMATE",
                        "viewport": {
                            "northeast": {
                                "lat": 25.6516755,
                                "lng": 88.6652376
                            },
                            "southwest": {
                                "lat": 25.5887429,
                                "lng": 88.6196243
                            }
                        }
                    },
                    "types": [
                        "locality",
                        "political"
                    ]
                }
            },
            {
                "implementer": "CARE",
                "lat": 24.85,
                "location": "Bogra",
                "long": 89.36666699999999,
                "raw": {
                    "address_components": [
                        {
                            "long_name": "Bogra",
                            "short_name": "Bogra",
                            "types": [
                                "locality",
                                "political"
                            ]
                        },
                        {
                            "long_name": "Bogra",
                            "short_name": "Bogra",
                            "types": [
                                "administrative_area_level_2",
                                "political"
                            ]
                        },
                        {
                            "long_name": "Rajshahi Division",
                            "short_name": "Rajshahi Division",
                            "types": [
                                "administrative_area_level_1",
                                "political"
                            ]
                        },
                        {
                            "long_name": "Bangladesh",
                            "short_name": "BD",
                            "types": [
                                "country",
                                "political"
                            ]
                        }
                    ],
                    "formatted_address": "Bogra, Bangladesh",
                    "geometry": {
                        "bounds": {
                            "northeast": {
                                "lat": 24.9005285,
                                "lng": 89.40980669999999
                            },
                            "southwest": {
                                "lat": 24.7822343,
                                "lng": 89.33060650000002
                            }
                        },
                        "location": {
                            "lat": 24.85,
                            "lng": 89.36666699999999
                        },
                        "location_type": "APPROXIMATE",
                        "viewport": {
                            "northeast": {
                                "lat": 24.9005285,
                                "lng": 89.40980669999999
                            },
                            "southwest": {
                                "lat": 24.7822343,
                                "lng": 89.33060650000002
                            }
                        }
                    },
                    "types": [
                        "locality",
                        "political"
                    ]
                }
            },
            {
                "implementer": "CARE",
                "lat": 24.4645469,
                "location": "Sirajganj",
                "long": 89.69102230000001,
                "raw": {
                    "address_components": [
                        {
                            "long_name": "Sirajganj",
                            "short_name": "Sirajganj",
                            "types": [
                                "locality",
                                "political"
                            ]
                        },
                        {
                            "long_name": "Sirajganj",
                            "short_name": "Sirajganj",
                            "types": [
                                "administrative_area_level_2",
                                "political"
                            ]
                        },
                        {
                            "long_name": "Rajshahi Division",
                            "short_name": "Rajshahi Division",
                            "types": [
                                "administrative_area_level_1",
                                "political"
                            ]
                        },
                        {
                            "long_name": "Bangladesh",
                            "short_name": "BD",
                            "types": [
                                "country",
                                "political"
                            ]
                        }
                    ],
                    "formatted_address": "Sirajganj, Bangladesh",
                    "geometry": {
                        "bounds": {
                            "northeast": {
                                "lat": 24.5111262,
                                "lng": 89.7201061
                            },
                            "southwest": {
                                "lat": 24.4237849,
                                "lng": 89.6432877
                            }
                        },
                        "location": {
                            "lat": 24.4645469,
                            "lng": 89.69102230000001
                        },
                        "location_type": "APPROXIMATE",
                        "viewport": {
                            "northeast": {
                                "lat": 24.5111262,
                                "lng": 89.7201061
                            },
                            "southwest": {
                                "lat": 24.4237849,
                                "lng": 89.6432877
                            }
                        }
                    },
                    "types": [
                        "locality",
                        "political"
                    ]
                }
            },
            {
                "implementer": "CARE",
                "lat": 24.016667,
                "location": "Pabna",
                "long": 89.216667,
                "raw": {
                    "address_components": [
                        {
                            "long_name": "Pabna",
                            "short_name": "Pabna",
                            "types": [
                                "locality",
                                "political"
                            ]
                        },
                        {
                            "long_name": "Pabna",
                            "short_name": "Pabna",
                            "types": [
                                "administrative_area_level_2",
                                "political"
                            ]
                        },
                        {
                            "long_name": "Rajshahi Division",
                            "short_name": "Rajshahi Division",
                            "types": [
                                "administrative_area_level_1",
                                "political"
                            ]
                        },
                        {
                            "long_name": "Bangladesh",
                            "short_name": "BD",
                            "types": [
                                "country",
                                "political"
                            ]
                        }
                    ],
                    "formatted_address": "Pabna, Bangladesh",
                    "geometry": {
                        "bounds": {
                            "northeast": {
                                "lat": 24.0384688,
                                "lng": 89.30048
                            },
                            "southwest": {
                                "lat": 23.9875072,
                                "lng": 89.19945709999999
                            }
                        },
                        "location": {
                            "lat": 24.016667,
                            "lng": 89.216667
                        },
                        "location_type": "APPROXIMATE",
                        "viewport": {
                            "northeast": {
                                "lat": 24.0384688,
                                "lng": 89.30048
                            },
                            "southwest": {
                                "lat": 23.9875072,
                                "lng": 89.19945709999999
                            }
                        }
                    },
                    "types": [
                        "locality",
                        "political"
                    ]
                }
            }
        ]
    },
    {
        "Award Date": "6/30/04",
        "Country": "Bangladesh",
        "Expiration Date": "",
        "FY14 Contribution": " $7,266,000 ",
        "Location (District or Municipality)": "Barisal, Barguna, Patuakhali",
        "Location (Region)": "Barisal",
        "Notes": "FFP anticipates awarding new programs in FY15",
        "Office": "USAID/Food for Peace",
        "Partner": "Save the Children",
        "Program Name": "Nobo Jibon",
        "Region": "ANE",
        "Type of Program": "Development",
        "country_coordinates": {
            "lat": 23.684994,
            "long": 90.356331,
            "raw": {
                "address_components": [
                    {
                        "long_name": "Bangladesh",
                        "short_name": "BD",
                        "types": [
                            "country",
                            "political"
                        ]
                    }
                ],
                "formatted_address": "Bangladesh",
                "geometry": {
                    "bounds": {
                        "northeast": {
                            "lat": 26.6342433,
                            "lng": 92.6801154
                        },
                        "southwest": {
                            "lat": 20.7543802,
                            "lng": 88.00858869999999
                        }
                    },
                    "location": {
                        "lat": 23.684994,
                        "lng": 90.356331
                    },
                    "location_type": "APPROXIMATE",
                    "viewport": {
                        "northeast": {
                            "lat": 26.6342433,
                            "lng": 92.6801154
                        },
                        "southwest": {
                            "lat": 20.7543802,
                            "lng": 88.00858869999999
                        }
                    }
                },
                "types": [
                    "country",
                    "political"
                ]
            }
        },
        "locations": [
            {
                "implementer": "Save the Children",
                "lat": 22.7,
                "location": "Barisal",
                "long": 90.36666699999999,
                "raw": {
                    "address_components": [
                        {
                            "long_name": "Barisal",
                            "short_name": "Barisal",
                            "types": [
                                "locality",
                                "political"
                            ]
                        },
                        {
                            "long_name": "Barisal",
                            "short_name": "Barisal",
                            "types": [
                                "administrative_area_level_2",
                                "political"
                            ]
                        },
                        {
                            "long_name": "Barisal Division",
                            "short_name": "Barisal Division",
                            "types": [
                                "administrative_area_level_1",
                                "political"
                            ]
                        },
                        {
                            "long_name": "Bangladesh",
                            "short_name": "BD",
                            "types": [
                                "country",
                                "political"
                            ]
                        }
                    ],
                    "formatted_address": "Barisal, Bangladesh",
                    "geometry": {
                        "bounds": {
                            "northeast": {
                                "lat": 22.7438022,
                                "lng": 90.3900342
                            },
                            "southwest": {
                                "lat": 22.646964,
                                "lng": 90.3175744
                            }
                        },
                        "location": {
                            "lat": 22.7,
                            "lng": 90.36666699999999
                        },
                        "location_type": "APPROXIMATE",
                        "viewport": {
                            "northeast": {
                                "lat": 22.7438022,
                                "lng": 90.3900342
                            },
                            "southwest": {
                                "lat": 22.646964,
                                "lng": 90.3175744
                            }
                        }
                    },
                    "types": [
                        "locality",
                        "political"
                    ]
                }
            },
            {
                "implementer": "Save the Children",
                "lat": 22.157885,
                "location": "Barguna",
                "long": 90.11440789999999,
                "raw": {
                    "address_components": [
                        {
                            "long_name": "Barguna",
                            "short_name": "Barguna",
                            "types": [
                                "locality",
                                "political"
                            ]
                        },
                        {
                            "long_name": "Barguna",
                            "short_name": "Barguna",
                            "types": [
                                "administrative_area_level_2",
                                "political"
                            ]
                        },
                        {
                            "long_name": "Barisal Division",
                            "short_name": "Barisal Division",
                            "types": [
                                "administrative_area_level_1",
                                "political"
                            ]
                        },
                        {
                            "long_name": "Bangladesh",
                            "short_name": "BD",
                            "types": [
                                "country",
                                "political"
                            ]
                        }
                    ],
                    "formatted_address": "Barguna, Bangladesh",
                    "geometry": {
                        "bounds": {
                            "northeast": {
                                "lat": 22.1645144,
                                "lng": 90.1316643
                            },
                            "southwest": {
                                "lat": 22.153465,
                                "lng": 90.1014519
                            }
                        },
                        "location": {
                            "lat": 22.157885,
                            "lng": 90.11440789999999
                        },
                        "location_type": "APPROXIMATE",
                        "viewport": {
                            "northeast": {
                                "lat": 22.1645144,
                                "lng": 90.1316643
                            },
                            "southwest": {
                                "lat": 22.153465,
                                "lng": 90.1014519
                            }
                        }
                    },
                    "types": [
                        "locality",
                        "political"
                    ]
                }
            },
            {
                "implementer": "Save the Children",
                "lat": 22.3542954,
                "location": "Patuakhali",
                "long": 90.3348372,
                "raw": {
                    "address_components": [
                        {
                            "long_name": "Patuakhali",
                            "short_name": "Patuakhali",
                            "types": [
                                "locality",
                                "political"
                            ]
                        },
                        {
                            "long_name": "Patuakhali",
                            "short_name": "Patuakhali",
                            "types": [
                                "administrative_area_level_2",
                                "political"
                            ]
                        },
                        {
                            "long_name": "Barisal Division",
                            "short_name": "Barisal Division",
                            "types": [
                                "administrative_area_level_1",
                                "political"
                            ]
                        },
                        {
                            "long_name": "Bangladesh",
                            "short_name": "BD",
                            "types": [
                                "country",
                                "political"
                            ]
                        }
                    ],
                    "formatted_address": "Patuakhali, Bangladesh",
                    "geometry": {
                        "bounds": {
                            "northeast": {
                                "lat": 22.3680152,
                                "lng": 90.3635359
                            },
                            "southwest": {
                                "lat": 22.3336427,
                                "lng": 90.30542860000001
                            }
                        },
                        "location": {
                            "lat": 22.3542954,
                            "lng": 90.3348372
                        },
                        "location_type": "APPROXIMATE",
                        "viewport": {
                            "northeast": {
                                "lat": 22.3680152,
                                "lng": 90.3635359
                            },
                            "southwest": {
                                "lat": 22.3336427,
                                "lng": 90.30542860000001
                            }
                        }
                    },
                    "types": [
                        "locality",
                        "political"
                    ]
                }
            }
        ]
    },
    {
        "Award Date": "7/11/11",
        "Country": "Burkina Faso",
        "Expiration Date": "",
        "FY14 Contribution": " $6,609,000 ",
        "Location (District or Municipality)": "Barsalogho, Kaya, Pissila, Namissiguima",
        "Location (Region)": "Sanmatenga",
        "Notes": "Includes $5 million in CDF each year",
        "Office": "USAID/Food for Peace",
        "Partner": "ACDI",
        "Program Name": "Victory Against Malnutrition (ViM)",
        "Region": "WAS",
        "Type of Program": "Development",
        "country_coordinates": {
            "lat": 12.238333,
            "long": -1.561593,
            "raw": {
                "address_components": [
                    {
                        "long_name": "Burkina Faso",
                        "short_name": "BF",
                        "types": [
                            "country",
                            "political"
                        ]
                    }
                ],
                "formatted_address": "Burkina Faso",
                "geometry": {
                    "bounds": {
                        "northeast": {
                            "lat": 15.085111,
                            "lng": 2.4042926
                        },
                        "southwest": {
                            "lat": 9.3938889,
                            "lng": -5.5211114
                        }
                    },
                    "location": {
                        "lat": 12.238333,
                        "lng": -1.561593
                    },
                    "location_type": "APPROXIMATE",
                    "viewport": {
                        "northeast": {
                            "lat": 15.085111,
                            "lng": 2.4042926
                        },
                        "southwest": {
                            "lat": 9.3938889,
                            "lng": -5.5211114
                        }
                    }
                },
                "types": [
                    "country",
                    "political"
                ]
            }
        },
        "locations": [
            {
                "implementer": "ACDI",
                "lat": 13.4108,
                "location": "Barsalogho",
                "long": -1.0522,
                "raw": {
                    "address_components": [
                        {
                            "long_name": "Barsalogho Department",
                            "short_name": "Barsalogho Department",
                            "types": [
                                "locality",
                                "political"
                            ]
                        },
                        {
                            "long_name": "Sanmatenga",
                            "short_name": "Sanmatenga",
                            "types": [
                                "administrative_area_level_2",
                                "political"
                            ]
                        },
                        {
                            "long_name": "Centre-Nord",
                            "short_name": "Centre-Nord",
                            "types": [
                                "administrative_area_level_1",
                                "political"
                            ]
                        },
                        {
                            "long_name": "Burkina Faso",
                            "short_name": "BF",
                            "types": [
                                "country",
                                "political"
                            ]
                        }
                    ],
                    "formatted_address": "Barsalogho Department, Burkina Faso",
                    "geometry": {
                        "location": {
                            "lat": 13.4108,
                            "lng": -1.0522
                        },
                        "location_type": "APPROXIMATE",
                        "viewport": {
                            "northeast": {
                                "lat": 13.5843968,
                                "lng": -0.7960811999999999
                            },
                            "southwest": {
                                "lat": 13.2370777,
                                "lng": -1.3083188
                            }
                        }
                    },
                    "types": [
                        "locality",
                        "political"
                    ]
                }
            },
            {
                "implementer": "ACDI",
                "lat": 13.083333,
                "location": "Kaya",
                "long": -1.083333,
                "raw": {
                    "address_components": [
                        {
                            "long_name": "Kaya",
                            "short_name": "Kaya",
                            "types": [
                                "locality",
                                "political"
                            ]
                        },
                        {
                            "long_name": "Sanmatenga",
                            "short_name": "Sanmatenga",
                            "types": [
                                "administrative_area_level_2",
                                "political"
                            ]
                        },
                        {
                            "long_name": "Centre-Nord",
                            "short_name": "Centre-Nord",
                            "types": [
                                "administrative_area_level_1",
                                "political"
                            ]
                        },
                        {
                            "long_name": "Burkina Faso",
                            "short_name": "BF",
                            "types": [
                                "country",
                                "political"
                            ]
                        }
                    ],
                    "formatted_address": "Kaya, Burkina Faso",
                    "geometry": {
                        "bounds": {
                            "northeast": {
                                "lat": 13.1142048,
                                "lng": -1.0486214
                            },
                            "southwest": {
                                "lat": 13.0534248,
                                "lng": -1.1144738
                            }
                        },
                        "location": {
                            "lat": 13.083333,
                            "lng": -1.083333
                        },
                        "location_type": "APPROXIMATE",
                        "viewport": {
                            "northeast": {
                                "lat": 13.1142048,
                                "lng": -1.0486214
                            },
                            "southwest": {
                                "lat": 13.0534248,
                                "lng": -1.1144738
                            }
                        }
                    },
                    "types": [
                        "locality",
                        "political"
                    ]
                }
            },
            {
                "implementer": "ACDI",
                "lat": 13.1637,
                "location": "Pissila",
                "long": -0.81943,
                "raw": {
                    "address_components": [
                        {
                            "long_name": "Pissila",
                            "short_name": "Pissila",
                            "types": [
                                "locality",
                                "political"
                            ]
                        },
                        {
                            "long_name": "Sanmatenga",
                            "short_name": "Sanmatenga",
                            "types": [
                                "administrative_area_level_2",
                                "political"
                            ]
                        },
                        {
                            "long_name": "Centre-Nord",
                            "short_name": "Centre-Nord",
                            "types": [
                                "administrative_area_level_1",
                                "political"
                            ]
                        },
                        {
                            "long_name": "Burkina Faso",
                            "short_name": "BF",
                            "types": [
                                "country",
                                "political"
                            ]
                        }
                    ],
                    "formatted_address": "Pissila, Burkina Faso",
                    "geometry": {
                        "location": {
                            "lat": 13.1637,
                            "lng": -0.81943
                        },
                        "location_type": "APPROXIMATE",
                        "viewport": {
                            "northeast": {
                                "lat": 13.2506029,
                                "lng": -0.6913706
                            },
                            "southwest": {
                                "lat": 13.0767662,
                                "lng": -0.9474893999999999
                            }
                        }
                    },
                    "types": [
                        "locality",
                        "political"
                    ]
                }
            },
            {
                "implementer": "ACDI",
                "lat": 13.516667,
                "location": "Namissiguima",
                "long": -1.266667,
                "raw": {
                    "address_components": [
                        {
                            "long_name": "Namissiguima",
                            "short_name": "Namissiguima",
                            "types": [
                                "locality",
                                "political"
                            ]
                        },
                        {
                            "long_name": "Sanmatenga",
                            "short_name": "Sanmatenga",
                            "types": [
                                "administrative_area_level_2",
                                "political"
                            ]
                        },
                        {
                            "long_name": "Centre-Nord",
                            "short_name": "Centre-Nord",
                            "types": [
                                "administrative_area_level_1",
                                "political"
                            ]
                        },
                        {
                            "long_name": "Burkina Faso",
                            "short_name": "BF",
                            "types": [
                                "country",
                                "political"
                            ]
                        }
                    ],
                    "formatted_address": "Namissiguima, Burkina Faso",
                    "geometry": {
                        "location": {
                            "lat": 13.516667,
                            "lng": -1.266667
                        },
                        "location_type": "APPROXIMATE",
                        "viewport": {
                            "northeast": {
                                "lat": 13.6901865,
                                "lng": -1.0105482
                            },
                            "southwest": {
                                "lat": 13.3430211,
                                "lng": -1.5227858
                            }
                        }
                    },
                    "types": [
                        "locality",
                        "political"
                    ]
                }
            }
        ]
    },
    {
        "Award Date": "6/10/10",
        "Country": "Burkina Faso",
        "Expiration Date": "",
        "FY14 Contribution": " $5,856,000 ",
        "Location (District or Municipality)": "Tougouri, Bouroum, Nagbingou, Yalgo, Koalla, Manni, Thion, Barti\u00e9bougou, Foutouri, Gayeri\n\n",
        "Location (Region)": "Gnagna, Komondjari, Namentenga",
        "Notes": "Includes $5 million in CDF each year",
        "Office": "USAID/Food for Peace",
        "Partner": "CRS",
        "Program Name": "Families Achieving Sustainable Outcomes (FASO)",
        "Region": "WAS",
        "Type of Program": "Development",
        "country_coordinates": {
            "lat": 12.238333,
            "long": -1.561593,
            "raw": {
                "address_components": [
                    {
                        "long_name": "Burkina Faso",
                        "short_name": "BF",
                        "types": [
                            "country",
                            "political"
                        ]
                    }
                ],
                "formatted_address": "Burkina Faso",
                "geometry": {
                    "bounds": {
                        "northeast": {
                            "lat": 15.085111,
                            "lng": 2.4042926
                        },
                        "southwest": {
                            "lat": 9.3938889,
                            "lng": -5.5211114
                        }
                    },
                    "location": {
                        "lat": 12.238333,
                        "lng": -1.561593
                    },
                    "location_type": "APPROXIMATE",
                    "viewport": {
                        "northeast": {
                            "lat": 15.085111,
                            "lng": 2.4042926
                        },
                        "southwest": {
                            "lat": 9.3938889,
                            "lng": -5.5211114
                        }
                    }
                },
                "types": [
                    "country",
                    "political"
                ]
            }
        },
        "locations": [
            {
                "implementer": "CRS",
                "lat": 13.30912,
                "location": "Tougouri",
                "long": -0.5237269999999999,
                "raw": {
                    "address_components": [
                        {
                            "long_name": "Tougouri Department",
                            "short_name": "Tougouri Department",
                            "types": [
                                "locality",
                                "political"
                            ]
                        },
                        {
                            "long_name": "Namentenga",
                            "short_name": "Namentenga",
                            "types": [
                                "administrative_area_level_2",
                                "political"
                            ]
                        },
                        {
                            "long_name": "Centre-Nord",
                            "short_name": "Centre-Nord",
                            "types": [
                                "administrative_area_level_1",
                                "political"
                            ]
                        },
                        {
                            "long_name": "Burkina Faso",
                            "short_name": "BF",
                            "types": [
                                "country",
                                "political"
                            ]
                        }
                    ],
                    "formatted_address": "Tougouri Department, Burkina Faso",
                    "geometry": {
                        "location": {
                            "lat": 13.30912,
                            "lng": -0.5237269999999999
                        },
                        "location_type": "APPROXIMATE",
                        "viewport": {
                            "northeast": {
                                "lat": 13.3525493,
                                "lng": -0.4596972999999999
                            },
                            "southwest": {
                                "lat": 13.2656829,
                                "lng": -0.5877567
                            }
                        }
                    },
                    "types": [
                        "locality",
                        "political"
                    ]
                }
            },
            {
                "implementer": "CRS",
                "lat": 13.613333,
                "location": "Bouroum",
                "long": -0.65,
                "raw": {
                    "address_components": [
                        {
                            "long_name": "Bouroum Department",
                            "short_name": "Bouroum Department",
                            "types": [
                                "locality",
                                "political"
                            ]
                        },
                        {
                            "long_name": "Namentenga",
                            "short_name": "Namentenga",
                            "types": [
                                "administrative_area_level_2",
                                "political"
                            ]
                        },
                        {
                            "long_name": "Centre-Nord",
                            "short_name": "Centre-Nord",
                            "types": [
                                "administrative_area_level_1",
                                "political"
                            ]
                        },
                        {
                            "long_name": "Burkina Faso",
                            "short_name": "BF",
                            "types": [
                                "country",
                                "political"
                            ]
                        }
                    ],
                    "formatted_address": "Bouroum Department, Burkina Faso",
                    "geometry": {
                        "location": {
                            "lat": 13.613333,
                            "lng": -0.65
                        },
                        "location_type": "APPROXIMATE",
                        "viewport": {
                            "northeast": {
                                "lat": 13.9601012,
                                "lng": -0.1377624
                            },
                            "southwest": {
                                "lat": 13.2660559,
                                "lng": -1.1622376
                            }
                        }
                    },
                    "types": [
                        "locality",
                        "political"
                    ]
                }
            },
            {
                "implementer": "CRS",
                "lat": null,
                "location": "Nagbingou",
                "long": null,
                "raw": null
            },
            {
                "implementer": "CRS",
                "lat": null,
                "location": "Yalgo",
                "long": null,
                "raw": null
            },
            {
                "implementer": "CRS",
                "lat": 13.1768739,
                "location": "Koalla",
                "long": -0.1518394,
                "raw": {
                    "address_components": [
                        {
                            "long_name": "Koala",
                            "short_name": "Koala",
                            "types": [
                                "locality",
                                "political"
                            ]
                        },
                        {
                            "long_name": "Gnagna",
                            "short_name": "Gnagna",
                            "types": [
                                "administrative_area_level_2",
                                "political"
                            ]
                        },
                        {
                            "long_name": "Est",
                            "short_name": "Est",
                            "types": [
                                "administrative_area_level_1",
                                "political"
                            ]
                        },
                        {
                            "long_name": "Burkina Faso",
                            "short_name": "BF",
                            "types": [
                                "country",
                                "political"
                            ]
                        }
                    ],
                    "formatted_address": "Koala, Burkina Faso",
                    "geometry": {
                        "bounds": {
                            "northeast": {
                                "lat": 13.1833762,
                                "lng": -0.1415348
                            },
                            "southwest": {
                                "lat": 13.1653245,
                                "lng": -0.1605891
                            }
                        },
                        "location": {
                            "lat": 13.1768739,
                            "lng": -0.1518394
                        },
                        "location_type": "APPROXIMATE",
                        "viewport": {
                            "northeast": {
                                "lat": 13.1833762,
                                "lng": -0.1415348
                            },
                            "southwest": {
                                "lat": 13.1653245,
                                "lng": -0.1605891
                            }
                        }
                    },
                    "types": [
                        "locality",
                        "political"
                    ]
                }
            },
            {
                "implementer": "CRS",
                "lat": 13.258333,
                "location": "Manni",
                "long": -0.213056,
                "raw": {
                    "address_components": [
                        {
                            "long_name": "Manni Department",
                            "short_name": "Manni Department",
                            "types": [
                                "locality",
                                "political"
                            ]
                        },
                        {
                            "long_name": "Gnagna",
                            "short_name": "Gnagna",
                            "types": [
                                "administrative_area_level_2",
                                "political"
                            ]
                        },
                        {
                            "long_name": "Est",
                            "short_name": "Est",
                            "types": [
                                "administrative_area_level_1",
                                "political"
                            ]
                        },
                        {
                            "long_name": "Burkina Faso",
                            "short_name": "BF",
                            "types": [
                                "country",
                                "political"
                            ]
                        }
                    ],
                    "formatted_address": "Manni Department, Burkina Faso",
                    "geometry": {
                        "location": {
                            "lat": 13.258333,
                            "lng": -0.213056
                        },
                        "location_type": "APPROXIMATE",
                        "viewport": {
                            "northeast": {
                                "lat": 13.3017715,
                                "lng": -0.1490263
                            },
                            "southwest": {
                                "lat": 13.2148868,
                                "lng": -0.2770857
                            }
                        }
                    },
                    "types": [
                        "locality",
                        "political"
                    ]
                }
            },
            {
                "implementer": "CRS",
                "lat": 13.07438,
                "location": "Thion",
                "long": -0.320153,
                "raw": {
                    "address_components": [
                        {
                            "long_name": "Thion",
                            "short_name": "Thion",
                            "types": [
                                "locality",
                                "political"
                            ]
                        },
                        {
                            "long_name": "Gnagna",
                            "short_name": "Gnagna",
                            "types": [
                                "administrative_area_level_2",
                                "political"
                            ]
                        },
                        {
                            "long_name": "Est",
                            "short_name": "Est",
                            "types": [
                                "administrative_area_level_1",
                                "political"
                            ]
                        },
                        {
                            "long_name": "Burkina Faso",
                            "short_name": "BF",
                            "types": [
                                "country",
                                "political"
                            ]
                        }
                    ],
                    "formatted_address": "Thion, Burkina Faso",
                    "geometry": {
                        "location": {
                            "lat": 13.07438,
                            "lng": -0.320153
                        },
                        "location_type": "APPROXIMATE",
                        "viewport": {
                            "northeast": {
                                "lat": 13.2482184,
                                "lng": -0.0640342
                            },
                            "southwest": {
                                "lat": 12.9004191,
                                "lng": -0.5762718
                            }
                        }
                    },
                    "types": [
                        "locality",
                        "political"
                    ]
                }
            },
            {
                "implementer": "CRS",
                "lat": null,
                "location": "Barti\u00e9bougou",
                "long": null,
                "raw": null
            },
            {
                "implementer": "CRS",
                "lat": null,
                "location": "Foutouri",
                "long": null,
                "raw": null
            },
            {
                "implementer": "CRS",
                "lat": 12.6513142,
                "location": "Gayeri\n\n",
                "long": 0.4915329000000001,
                "raw": {
                    "address_components": [
                        {
                            "long_name": "Gayeri",
                            "short_name": "Gayeri",
                            "types": [
                                "locality",
                                "political"
                            ]
                        },
                        {
                            "long_name": "Komandjari",
                            "short_name": "Komandjari",
                            "types": [
                                "administrative_area_level_2",
                                "political"
                            ]
                        },
                        {
                            "long_name": "Est",
                            "short_name": "Est",
                            "types": [
                                "administrative_area_level_1",
                                "political"
                            ]
                        },
                        {
                            "long_name": "Burkina Faso",
                            "short_name": "BF",
                            "types": [
                                "country",
                                "political"
                            ]
                        }
                    ],
                    "formatted_address": "Gayeri, Burkina Faso",
                    "geometry": {
                        "bounds": {
                            "northeast": {
                                "lat": 12.6556223,
                                "lng": 0.4959297
                            },
                            "southwest": {
                                "lat": 12.6462008,
                                "lng": 0.4859733999999999
                            }
                        },
                        "location": {
                            "lat": 12.6513142,
                            "lng": 0.4915329000000001
                        },
                        "location_type": "APPROXIMATE",
                        "viewport": {
                            "northeast": {
                                "lat": 12.6556223,
                                "lng": 0.4959297
                            },
                            "southwest": {
                                "lat": 12.6462008,
                                "lng": 0.4859733999999999
                            }
                        }
                    },
                    "types": [
                        "locality",
                        "political"
                    ]
                }
            }
        ]
    },
    {
        "Award Date": "8/4/08",
        "Country": "Burundi",
        "Expiration Date": "",
        "FY14 Contribution": " $-   ",
        "Location (District or Municipality)": "Kigamba, Mishiha, Cankuzo, Gisagara, Cendajuru, Butezi, Ruyigi, Bweru, Gisuru, Butanganzwa, Nyabitsinda, Kinyinya",
        "Location (Region)": "Cankuzo, Ruyigi ",
        "Notes": "FFP anticipates awarding new program in FY14",
        "Office": "USAID/Food for Peace",
        "Partner": "CRS",
        "Program Name": "Tubaramure (PM2A)",
        "Region": "CSA",
        "Type of Program": "Development",
        "country_coordinates": {
            "lat": -3.373056,
            "long": 29.918886,
            "raw": {
                "address_components": [
                    {
                        "long_name": "Burundi",
                        "short_name": "BI",
                        "types": [
                            "country",
                            "political"
                        ]
                    }
                ],
                "formatted_address": "Burundi",
                "geometry": {
                    "bounds": {
                        "northeast": {
                            "lat": -2.309987,
                            "lng": 30.8501728
                        },
                        "southwest": {
                            "lat": -4.4692284,
                            "lng": 29.000993
                        }
                    },
                    "location": {
                        "lat": -3.373056,
                        "lng": 29.918886
                    },
                    "location_type": "APPROXIMATE",
                    "viewport": {
                        "northeast": {
                            "lat": -2.309987,
                            "lng": 30.8501728
                        },
                        "southwest": {
                            "lat": -4.4692284,
                            "lng": 29.000993
                        }
                    }
                },
                "types": [
                    "country",
                    "political"
                ]
            }
        },
        "locations": [
            {
                "implementer": "CRS",
                "lat": -3.0524174,
                "location": "Kigamba",
                "long": 30.4818446,
                "raw": {
                    "address_components": [
                        {
                            "long_name": "Kigamba",
                            "short_name": "Kigamba",
                            "types": [
                                "administrative_area_level_2",
                                "political"
                            ]
                        },
                        {
                            "long_name": "Cankuzo",
                            "short_name": "Cankuzo",
                            "types": [
                                "administrative_area_level_1",
                                "political"
                            ]
                        },
                        {
                            "long_name": "Burundi",
                            "short_name": "BI",
                            "types": [
                                "country",
                                "political"
                            ]
                        }
                    ],
                    "formatted_address": "Kigamba, Burundi",
                    "geometry": {
                        "bounds": {
                            "northeast": {
                                "lat": -2.8956382,
                                "lng": 30.6718539
                            },
                            "southwest": {
                                "lat": -3.1801096,
                                "lng": 30.3809739
                            }
                        },
                        "location": {
                            "lat": -3.0524174,
                            "lng": 30.4818446
                        },
                        "location_type": "APPROXIMATE",
                        "viewport": {
                            "northeast": {
                                "lat": -2.8956382,
                                "lng": 30.6718539
                            },
                            "southwest": {
                                "lat": -3.1801096,
                                "lng": 30.3809739
                            }
                        }
                    },
                    "types": [
                        "administrative_area_level_2",
                        "political"
                    ]
                }
            },
            {
                "implementer": "CRS",
                "lat": -3.0618745,
                "location": "Mishiha",
                "long": 30.73499499999999,
                "raw": {
                    "address_components": [
                        {
                            "long_name": "Mishiha",
                            "short_name": "Mishiha",
                            "types": [
                                "administrative_area_level_2",
                                "political"
                            ]
                        },
                        {
                            "long_name": "Cankuzo",
                            "short_name": "Cankuzo",
                            "types": [
                                "administrative_area_level_1",
                                "political"
                            ]
                        },
                        {
                            "long_name": "Burundi",
                            "short_name": "BI",
                            "types": [
                                "country",
                                "political"
                            ]
                        }
                    ],
                    "formatted_address": "Mishiha, Burundi",
                    "geometry": {
                        "bounds": {
                            "northeast": {
                                "lat": -2.9726049,
                                "lng": 30.8455504
                            },
                            "southwest": {
                                "lat": -3.1718538,
                                "lng": 30.6007471
                            }
                        },
                        "location": {
                            "lat": -3.0618745,
                            "lng": 30.73499499999999
                        },
                        "location_type": "APPROXIMATE",
                        "viewport": {
                            "northeast": {
                                "lat": -2.9726049,
                                "lng": 30.8455504
                            },
                            "southwest": {
                                "lat": -3.1718538,
                                "lng": 30.6007471
                            }
                        }
                    },
                    "types": [
                        "administrative_area_level_2",
                        "political"
                    ]
                }
            },
            {
                "implementer": "CRS",
                "lat": -3.2196819,
                "location": "Cankuzo",
                "long": 30.5466187,
                "raw": {
                    "address_components": [
                        {
                            "long_name": "Cankuzo",
                            "short_name": "Cankuzo",
                            "types": [
                                "locality",
                                "political"
                            ]
                        },
                        {
                            "long_name": "Cankuzo",
                            "short_name": "Cankuzo",
                            "types": [
                                "administrative_area_level_2",
                                "political"
                            ]
                        },
                        {
                            "long_name": "Cankuzo",
                            "short_name": "Cankuzo",
                            "types": [
                                "administrative_area_level_1",
                                "political"
                            ]
                        },
                        {
                            "long_name": "Burundi",
                            "short_name": "BI",
                            "types": [
                                "country",
                                "political"
                            ]
                        }
                    ],
                    "formatted_address": "Cankuzo, Burundi",
                    "geometry": {
                        "bounds": {
                            "northeast": {
                                "lat": -3.2114974,
                                "lng": 30.5516804
                            },
                            "southwest": {
                                "lat": -3.227476,
                                "lng": 30.5413656
                            }
                        },
                        "location": {
                            "lat": -3.2196819,
                            "lng": 30.5466187
                        },
                        "location_type": "APPROXIMATE",
                        "viewport": {
                            "northeast": {
                                "lat": -3.2114974,
                                "lng": 30.5516804
                            },
                            "southwest": {
                                "lat": -3.227476,
                                "lng": 30.5413656
                            }
                        }
                    },
                    "types": [
                        "locality",
                        "political"
                    ]
                }
            },
            {
                "implementer": "CRS",
                "lat": -3.1991342,
                "location": "Gisagara",
                "long": 30.77091249999999,
                "raw": {
                    "address_components": [
                        {
                            "long_name": "Gisagara",
                            "short_name": "Gisagara",
                            "types": [
                                "locality",
                                "political"
                            ]
                        },
                        {
                            "long_name": "Gisagara",
                            "short_name": "Gisagara",
                            "types": [
                                "administrative_area_level_2",
                                "political"
                            ]
                        },
                        {
                            "long_name": "Cankuzo",
                            "short_name": "Cankuzo",
                            "types": [
                                "administrative_area_level_1",
                                "political"
                            ]
                        },
                        {
                            "long_name": "Burundi",
                            "short_name": "BI",
                            "types": [
                                "country",
                                "political"
                            ]
                        }
                    ],
                    "formatted_address": "Gisagara, Burundi",
                    "geometry": {
                        "bounds": {
                            "northeast": {
                                "lat": -3.1975919,
                                "lng": 30.7744217
                            },
                            "southwest": {
                                "lat": -3.2011912,
                                "lng": 30.7674693
                            }
                        },
                        "location": {
                            "lat": -3.1991342,
                            "lng": 30.77091249999999
                        },